<?xml version="1.0" encoding="UTF-8"?>
<kml xmlns="http://www.opengis.net/kml/2.2">
  <Document>
  <Placemark>
    <name>ABBEVILLE</name>
    <Point>
      <coordinates>1.834,50.136,0</coordinates>
    </Point>
  </Placemark>
  <Placemark>
    <name>LILLE-LESQUIN</name>
    <Point>
      <coordinates>3.0975,50.57,0</coordinates>
    </Point>
  </Placemark>
  <Placemark>
    <name>PTE DE LA HAGUE</name>
    <Point>
      <coordinates>-1.93983,49.7252,0</coordinates>
    </Point>
  </Placemark>
  <Placemark>
    <name>CAEN-CARPIQUET</name>
    <Point>
      <coordinates>-0.456167,49.18,0</coordinates>
    </Point>
  </Placemark>
  <Placemark>
    <name>ROUEN-BOOS</name>
    <Point>
      <coordinates>1.18167,49.383,0</coordinates>
    </Point>
  </Placemark>
  <Placemark>
    <name>REIMS-PRUNAY</name>
    <Point>
      <coordinates>4.15533,49.2097,0</coordinates>
    </Point>
  </Placemark>
  <Placemark>
    <name>BREST-GUIPAVAS</name>
    <Point>
      <coordinates>-4.412,48.4442,0</coordinates>
    </Point>
  </Placemark>
  <Placemark>
    <name>PLOUMANAC'H</name>
    <Point>
      <coordinates>-3.47317,48.8258,0</coordinates>
    </Point>
  </Placemark>
  <Placemark>
    <name>RENNES-ST JACQUES</name>
    <Point>
      <coordinates>-1.734,48.0688,0</coordinates>
    </Point>
  </Placemark>
  <Placemark>
    <name>ALENCON</name>
    <Point>
      <coordinates>0.110167,48.4455,0</coordinates>
    </Point>
  </Placemark>
  <Placemark>
    <name>ORLY</name>
    <Point>
      <coordinates>2.38433,48.7168,0</coordinates>
    </Point>
  </Placemark>
  <Placemark>
    <name>TROYES-BARBEREY</name>
    <Point>
      <coordinates>4.02,48.3247,0</coordinates>
    </Point>
  </Placemark>
  <Placemark>
    <name>NANCY-OCHEY</name>
    <Point>
      <coordinates>5.95983,48.581,0</coordinates>
    </Point>
  </Placemark>
  <Placemark>
    <name>STRASBOURG-ENTZHEIM</name>
    <Point>
      <coordinates>7.64033,48.5495,0</coordinates>
    </Point>
  </Placemark>
  <Placemark>
    <name>BELLE ILE-LE TALUT</name>
    <Point>
      <coordinates>-3.21833,47.2943,0</coordinates>
    </Point>
  </Placemark>
  <Placemark>
    <name>NANTES-BOUGUENAIS</name>
    <Point>
      <coordinates>-1.60883,47.15,0</coordinates>
    </Point>
  </Placemark>
  <Placemark>
    <name>TOURS</name>
    <Point>
      <coordinates>0.727333,47.4445,0</coordinates>
    </Point>
  </Placemark>
  <Placemark>
    <name>BOURGES</name>
    <Point>
      <coordinates>2.35983,47.0592,0</coordinates>
    </Point>
  </Placemark>
  <Placemark>
    <name>DIJON-LONGVIC</name>
    <Point>
      <coordinates>5.08833,47.2678,0</coordinates>
    </Point>
  </Placemark>
  <Placemark>
    <name>BALE-MULHOUSE</name>
    <Point>
      <coordinates>7.51,47.6143,0</coordinates>
    </Point>
  </Placemark>
  <Placemark>
    <name>PTE DE CHASSIRON</name>
    <Point>
      <coordinates>-1.4115,46.0468,0</coordinates>
    </Point>
  </Placemark>
  <Placemark>
    <name>POITIERS-BIARD</name>
    <Point>
      <coordinates>0.314333,46.5938,0</coordinates>
    </Point>
  </Placemark>
  <Placemark>
    <name>LIMOGES-BELLEGARDE</name>
    <Point>
      <coordinates>1.175,45.8612,0</coordinates>
    </Point>
  </Placemark>
  <Placemark>
    <name>CLERMONT-FD</name>
    <Point>
      <coordinates>3.14933,45.7868,0</coordinates>
    </Point>
  </Placemark>
  <Placemark>
    <name>LE PUY-LOUDES</name>
    <Point>
      <coordinates>3.764,45.0745,0</coordinates>
    </Point>
  </Placemark>
  <Placemark>
    <name>LYON-ST EXUPERY</name>
    <Point>
      <coordinates>5.07783,45.7265,0</coordinates>
    </Point>
  </Placemark>
  <Placemark>
    <name>BORDEAUX-MERIGNAC</name>
    <Point>
      <coordinates>-0.691333,44.8307,0</coordinates>
    </Point>
  </Placemark>
  <Placemark>
    <name>GOURDON</name>
    <Point>
      <coordinates>1.39667,44.745,0</coordinates>
    </Point>
  </Placemark>
  <Placemark>
    <name>MILLAU</name>
    <Point>
      <coordinates>3.0195,44.1185,0</coordinates>
    </Point>
  </Placemark>
  <Placemark>
    <name>MONTELIMAR</name>
    <Point>
      <coordinates>4.733,44.5812,0</coordinates>
    </Point>
  </Placemark>
  <Placemark>
    <name>EMBRUN</name>
    <Point>
      <coordinates>6.50233,44.5657,0</coordinates>
    </Point>
  </Placemark>
  <Placemark>
    <name>MONT-DE-MARSAN</name>
    <Point>
      <coordinates>-0.500167,43.9098,0</coordinates>
    </Point>
  </Placemark>
  <Placemark>
    <name>TARBES-OSSUN</name>
    <Point>
      <coordinates>0,43.188,0</coordinates>
    </Point>
  </Placemark>
  <Placemark>
    <name>ST GIRONS</name>
    <Point>
      <coordinates>1.10683,43.0053,0</coordinates>
    </Point>
  </Placemark>
  <Placemark>
    <name>TOULOUSE-BLAGNAC</name>
    <Point>
      <coordinates>1.37883,43.621,0</coordinates>
    </Point>
  </Placemark>
  <Placemark>
    <name>MONTPELLIER</name>
    <Point>
      <coordinates>3.96317,43.577,0</coordinates>
    </Point>
  </Placemark>
  <Placemark>
    <name>MARIGNANE</name>
    <Point>
      <coordinates>5.216,43.4377,0</coordinates>
    </Point>
  </Placemark>
  <Placemark>
    <name>CAP CEPET</name>
    <Point>
      <coordinates>5.94083,43.0793,0</coordinates>
    </Point>
  </Placemark>
  <Placemark>
    <name>NICE</name>
    <Point>
      <coordinates>7.209,43.6488,0</coordinates>
    </Point>
  </Placemark>
  <Placemark>
    <name>PERPIGNAN</name>
    <Point>
      <coordinates>2.87283,42.7372,0</coordinates>
    </Point>
  </Placemark>
  <Placemark>
    <name>AJACCIO</name>
    <Point>
      <coordinates>8.79267,41.918,0</coordinates>
    </Point>
  </Placemark>
  <Placemark>
    <name>BASTIA</name>
    <Point>
      <coordinates>9.48517,42.5407,0</coordinates>
    </Point>
  </Placemark>
  </Document>
</kml>
